[{"name":"adeyemi adeshina","location":"Lagos","phoneNumber":null,"pickUpDate":null,"deliveryDate":null,"servicePreference":null,"piecesOfClothes":null},{"name":"adeyemi adeshina","location":"Lagos"},{"name":"adeyemi adeshina","location":"Lagos","phoneNumber":"08185144958","pickUpDate":"2021-05-11","deliveryDate":"jj","servicePreference":"jj","piecesOfClothes":"2"},{"name":"adeyemi adeshina","location":"Lagos","phoneNumber":"08185144958","pickUpDate":"2021-05-12","deliveryDate":"jj","servicePreference":"jj","piecesOfClothes":"1"},{"name":"adeyemi adeshina","location":"Lagos","phoneNumber":"08185144958","pickUpDate":"2021-05-12","deliveryDate":"jj","servicePreference":"jj","piecesOfClothes":"1"},{"name":"dddd","location":"Lagos","phoneNumber":"08185144958","pickUpDate":"2021-05-05","deliveryDate":"kk","servicePreference":"kk","piecesOfClothes":"9"},{"name":"adeyemi adeshina","location":"Lagos","phoneNumber":"08185144958","pickUpDate":"2021-05-08","deliveryDate":"f ","servicePreference":"f ","piecesOfClothes":"1"},{"name":"dddd","location":"Lagos","phoneNumber":"07085291222","pickUpDate":"2021-05-07","deliveryDate":"f ","servicePreference":"f ","piecesOfClothes":"1"},{"name":"adeyemi adeshina","location":"Lagos","phoneNumber":"08185144958","pickUpDate":"2021-05-08","deliveryDate":"kk","servicePreference":"kk","piecesOfClothes":"2"},{"name":"adeyemi adeshina","location":"Lagos","phoneNumber":"08185144958","pickUpDate":"2022-07-04","deliveryDate":"f ","servicePreference":"f ","piecesOfClothes":"7"}]